City_ID,City,Lat,Lng,Max Temp,Humidity,Cloudiness,Wind Speed,Country,Date
0,lihue,21.9789,-159.3672,305.73,63,75,9.77,US,1691617481
1,ilulissat,69.2167,-51.1,285.16,43,75,1.54,GL,1691617490
2,mount gambier,-37.8333,140.7667,283.32,71,100,4.34,AU,1691617458
3,ushuaia,-54.8,-68.3,280.96,53,40,6.69,AR,1691617435
4,port-aux-francais,-49.35,70.2167,275.82,78,94,12.52,TF,1691617430
5,uturoa,-16.7333,-151.4333,298.2,71,18,7.74,PF,1691617623
6,anadyr,64.75,177.4833,284.43,82,75,5.0,RU,1691617480
7,grytviken,-54.2811,-36.5092,266.74,90,29,1.41,GS,1691617475
8,albany,42.6001,-73.9662,300.86,53,40,4.74,US,1691617474
9,edinburgh of the seven seas,-37.0676,-12.3116,283.85,59,57,10.99,SH,1691617473
10,isafjordur,66.0755,-23.124,281.76,68,90,3.54,IS,1691617384
11,gunnison,38.7,-107.0673,296.81,17,6,5.99,US,1691617664
12,west island,-12.1568,96.8225,298.14,83,100,5.66,CC,1691617512
13,vadso,70.0744,29.7487,295.64,77,10,2.06,NO,1691617584
14,oulad teima,30.3947,-9.209,297.75,51,63,1.62,MA,1691617664
15,thompson,55.7435,-97.8558,292.24,48,75,1.54,CA,1691617413
16,wailua homesteads,22.0669,-159.378,305.39,71,75,9.77,US,1691617486
17,chui,-33.6971,-53.4616,288.54,85,86,5.57,UY,1691617583
18,noshiro,40.2039,140.0242,301.48,74,38,2.95,JP,1691617664
19,verdal,63.7933,11.4817,287.17,72,5,3.76,NO,1691617664
20,ko pha ngan,9.7578,100.0291,298.69,75,73,7.37,TH,1691617665
21,luena,-11.7833,19.9167,288.45,38,0,1.99,AO,1691617454
22,aasiaat,68.7098,-52.8699,277.49,83,14,4.18,GL,1691617439
23,funafuti,-8.5243,179.1942,305.15,79,20,3.09,TV,1691617665
24,puerto natales,-51.7236,-72.4875,275.76,95,88,1.46,CL,1691617475
25,naze,28.3667,129.4833,298.66,88,66,5.01,JP,1691617665
26,grants,35.1473,-107.8514,303.28,14,40,6.69,US,1691617665
27,port mathurin,-19.6833,63.4167,295.99,66,0,7.37,MU,1691617477
28,bereznik,62.8551,42.7072,289.12,94,6,1.95,RU,1691617439
29,constantia,44.1833,28.65,290.76,66,6,4.33,RO,1691617374
30,papatowai,-46.5619,169.4708,276.53,88,96,3.14,NZ,1691617378
31,mosjoen,65.836,13.1908,292.21,48,40,6.17,NO,1691617666
32,tiksi,71.6872,128.8694,290.76,49,10,3.05,RU,1691617569
33,yellowknife,62.456,-114.3525,294.44,43,75,8.23,CA,1691617376
34,kavaratti,10.5669,72.642,301.23,76,100,7.28,IN,1691617438
35,mirnyy,62.5353,113.9611,289.95,88,98,1.79,RU,1691617457
36,uberherrn,49.2419,6.6984,289.45,85,10,1.36,DE,1691617666
37,adamstown,-25.066,-130.1015,291.99,67,67,9.95,PN,1691617373
38,blackmans bay,-43.0167,147.3167,285.22,70,100,3.76,AU,1691617430
39,uyuni,-20.4597,-66.825,280.86,24,0,3.12,BO,1691617666
40,dharur,18.8167,76.1167,295.19,84,100,4.53,IN,1691617667
41,igarka,67.4667,86.5833,286.14,95,97,2.47,RU,1691617667
42,anloga,5.7947,0.8973,297.81,89,77,6.39,GH,1691617453
43,invercargill,-46.4,168.35,275.38,96,84,1.34,NZ,1691617521
44,baki,-7.6128,110.7839,293.46,85,69,1.29,ID,1691617633
45,bethel,41.3712,-73.414,302.94,52,0,4.12,US,1691617379
46,chardara,41.2547,67.9692,297.97,44,0,1.49,KZ,1691617667
47,punta arenas,-53.15,-70.9167,276.65,90,100,2.64,CL,1691617335
48,fortuna,40.5982,-124.1573,298.11,67,20,6.69,US,1691617524
49,bouza,14.4229,6.0428,301.67,62,28,3.21,NE,1691617667
50,ulladulla,-35.35,150.4667,288.79,45,100,3.99,AU,1691617480
51,yuzhno-kurilsk,44.0306,145.8556,292.86,99,100,3.85,RU,1691617486
52,yanchep,-31.55,115.6833,285.22,64,86,2.54,AU,1691617668
53,ketchikan,55.3422,-131.6461,287.41,100,100,4.63,US,1691617436
54,palu,-0.8917,119.8707,296.84,95,100,1.14,ID,1691617668
55,acapulco de juarez,16.8634,-99.8901,303.05,79,100,2.57,MX,1691617348
56,atafu village,-8.5421,-172.5159,301.39,79,100,6.48,TK,1691617558
57,olonkinbyen,70.9221,-8.7187,279.24,100,100,3.2,SJ,1691617430
58,kudahuvadhoo,2.6708,72.8944,300.37,78,90,5.23,MV,1691617668
59,trujillo,-8.116,-79.03,295.13,78,75,3.6,PE,1691617602
60,le lavandou,43.137,6.366,293.55,83,0,1.03,FR,1691617669
61,kodiak,57.79,-152.4072,285.88,94,100,2.57,US,1691617474
62,nar'yan-mar,67.6713,53.087,284.7,86,36,2.88,RU,1691617390
63,hamilton,39.1834,-84.5333,300.25,80,75,5.14,US,1691617490
64,waitangi,-43.9535,-176.5597,283.05,75,63,1.79,NZ,1691617483
65,hawaiian paradise park,19.5933,-154.9731,300.78,77,100,2.57,US,1691617492
66,saint-joseph,-21.3667,55.6167,292.36,76,19,2.89,RE,1691617561
67,burkburnett,34.0979,-98.5706,317.01,18,40,9.77,US,1691617557
68,fale old settlement,-9.3852,-171.2468,301.51,78,40,6.74,TK,1691617379
69,parys,48.8534,2.3488,292.67,79,0,2.06,FR,1691617646
70,dunedin,-45.8742,170.5036,278.6,66,33,2.68,NZ,1691617568
71,iranshahr,27.2025,60.6848,310.34,15,0,2.06,IR,1691617669
72,whitehorse,60.7161,-135.0538,293.2,45,75,2.06,CA,1691617488
73,viqueque,-8.8673,126.3658,295.06,90,53,0.69,TL,1691617670
74,slave lake,55.2834,-114.769,289.14,100,100,3.6,CA,1691617670
75,isangel,-19.55,169.2667,294.45,66,26,7.99,VU,1691617670
76,arraial do cabo,-22.9661,-42.0278,295.07,78,75,6.17,BR,1691617619
77,flin flon,54.7682,-101.865,292.06,39,20,2.57,CA,1691617670
78,east london,-33.0153,27.9116,290.1,80,50,7.42,ZA,1691617500
79,ribeira grande,38.5167,-28.7,297.37,88,20,4.12,PT,1691617378
80,senador jose porfirio,-2.5908,-51.9542,302.08,61,42,2.0,BR,1691617671
81,cockburn town,21.4612,-71.1419,302.14,84,71,7.66,TC,1691617634
82,college,64.8569,-147.8028,296.04,77,75,2.06,US,1691617540
83,maturin,9.75,-63.1767,297.06,100,100,2.06,VE,1691617671
84,haiku-pauwela,20.9219,-156.3051,301.62,58,40,9.26,US,1691617382
85,bredasdorp,-34.5322,20.0403,283.54,93,1,0.84,ZA,1691617377
86,st. john's,47.5649,-52.7093,287.47,85,100,6.69,CA,1691617423
87,sai buri,6.7013,101.6168,297.69,88,90,2.28,TH,1691617671
88,iqaluit,63.7506,-68.5145,278.0,100,100,4.12,CA,1691617430
89,longyearbyen,78.2186,15.6401,283.06,71,0,3.6,SJ,1691617477
90,mugia,43.1041,-9.2179,294.21,79,98,6.21,ES,1691617526
91,beyneu,45.3167,55.2,303.2,24,9,3.77,KZ,1691617667
92,port lincoln,-34.7333,135.8667,283.77,72,53,3.61,AU,1691617530
93,westport,41.1415,-73.3579,303.76,47,20,5.14,US,1691617473
94,tura,25.5198,90.2201,296.51,98,100,0.92,IN,1691617374
95,san antonio de pale,-1.4014,5.6325,296.82,82,89,5.58,GQ,1691617574
96,adelaide,-34.9333,138.6,285.0,81,20,5.14,AU,1691617494
97,kiama,-34.6833,150.8667,288.96,59,88,1.34,AU,1691617672
98,vorgashor,67.5833,63.95,280.62,90,25,3.15,RU,1691617531
99,suva,-18.1416,178.4415,294.86,94,75,3.09,FJ,1691617673
100,kurumkan,54.3,110.3,290.22,96,100,1.76,RU,1691617673
101,neftegorsk,52.802,51.166,291.38,61,1,1.8,RU,1691617673
102,margaret river,-33.95,115.0667,283.58,80,100,1.59,AU,1691617493
103,carnarvon,-24.8667,113.6333,292.45,74,22,4.22,AU,1691617594
104,saint-francois,46.4154,3.9054,292.41,77,0,0.51,FR,1691617673
105,georgetown,5.4112,100.3354,299.83,95,40,2.06,MY,1691617550
106,alice springs,-23.7,133.8833,278.9,70,1,0.0,AU,1691617653
107,moranbah,-22.0016,148.0466,287.59,81,0,4.08,AU,1691617673
108,port elizabeth,-33.918,25.5701,290.31,77,0,7.72,ZA,1691617479
109,itaituba,-4.2761,-55.9836,308.24,52,20,3.09,BR,1691617654
110,chibougamau,49.9168,-74.3659,296.94,43,20,4.63,CA,1691617674
111,medicine hat,50.0501,-110.6683,303.62,37,75,3.6,CA,1691617599
112,burutu,5.3509,5.5076,298.28,86,86,2.57,NG,1691617674
113,iskateley,67.6803,53.1512,284.52,86,30,2.85,RU,1691617478
114,udachny,66.4167,112.4,287.29,58,98,2.58,RU,1691617535
115,howard springs,-12.497,131.047,296.1,73,83,3.03,AU,1691617515
116,new norfolk,-42.7826,147.0587,285.88,79,100,3.2,AU,1691617560
117,ulsteinvik,62.3432,5.8487,284.76,91,100,5.81,NO,1691617486
118,buckhurst hill,51.6241,0.0326,292.31,79,24,3.09,GB,1691617674
119,hotan,37.0997,79.9269,300.48,27,45,2.56,CN,1691617598
120,nuuk,64.1835,-51.7216,278.49,93,100,6.69,GL,1691617392
121,island harbour,50.724,-1.2758,290.63,90,0,1.63,GB,1691617675
122,sinop,41.7711,34.8709,290.54,81,32,0.9,TR,1691617675
123,hammerfest,70.6634,23.6821,296.4,64,0,2.57,NO,1691617646
124,barra do corda,-5.5,-45.25,303.34,33,23,0.99,BR,1691617675
125,mahibadhoo,3.7833,72.9667,300.82,79,100,5.96,MV,1691617675
126,zaragoza,41.6561,-0.8773,306.4,44,20,7.2,ES,1691617675
127,grand forks,47.9417,-97.4337,296.11,46,75,5.14,US,1691617675
128,keflavik,64.0049,-22.5624,287.1,71,0,3.09,IS,1691617383
129,sitka,57.0531,-135.33,289.09,82,100,2.57,US,1691617398
130,tazovsky,67.4667,78.7,281.05,86,85,8.64,RU,1691617571
131,badger,64.8,-147.5333,296.0,78,100,2.06,US,1691617401
132,rio piracicaba,-19.9292,-43.1742,293.13,68,98,1.07,BR,1691617676
133,dryden,49.7833,-92.7503,290.31,59,100,4.12,CA,1691617432
134,twon-brass,4.3151,6.2418,298.54,85,84,5.67,NG,1691617676
135,kirensk,57.7853,108.1119,290.29,88,100,0.71,RU,1691617526
136,abra pampa,-22.7205,-65.697,286.41,8,14,1.44,AR,1691617676
137,pisco,-13.7,-76.2167,294.18,73,20,4.63,PE,1691617446
138,ust-nera,64.5667,143.2,290.42,56,11,1.47,RU,1691617528
139,talnakh,69.4865,88.3972,286.6,67,100,2.32,RU,1691617374
140,el burgo de osma,41.5862,-3.0652,295.94,49,28,1.67,ES,1691617677
141,callao,-12.0667,-77.15,295.31,68,100,6.17,PE,1691617494
142,berdigestyakh,62.0989,126.6992,288.78,57,14,3.54,RU,1691617677
143,bilibino,68.0546,166.4372,285.77,43,99,1.89,RU,1691617482
144,codrington,-38.2667,141.9667,283.11,80,60,7.5,AU,1691617379
145,malanville,11.8685,3.3899,297.88,87,15,3.19,BJ,1691617677
146,coquimbo,-29.9533,-71.3436,288.0,82,100,3.09,CL,1691617572
147,mount isa,-20.7333,139.5,281.02,81,6,0.0,AU,1691617432
148,dutse,11.7594,9.3392,297.11,81,98,3.27,NG,1691617678
149,fort mcmurray,56.7268,-111.381,287.92,88,100,6.69,CA,1691617389
150,bamboo flat,11.7,92.7167,300.59,82,100,6.3,IN,1691617518
151,manaquiri,-3.3167,-60.35,306.4,43,52,1.49,BR,1691617678
152,mezhdurechensk,53.6942,88.0603,285.82,93,34,1.24,RU,1691617678
153,soe,-9.8607,124.284,289.37,91,60,2.06,ID,1691617678
154,shijiang,27.0819,110.7933,297.82,93,0,0.36,CN,1691617678
155,timimoun,29.2639,0.231,311.36,10,0,3.09,DZ,1691617678
156,yaren,-0.5472,166.916,301.1,75,42,2.89,NR,1691617386
157,embalenhle,-26.5333,29.0667,281.24,94,21,2.31,ZA,1691617679
158,dolbeau-mistassini,48.8763,-72.212,294.41,76,93,2.08,CA,1691617655
159,jimma,7.6667,36.8333,288.11,98,94,0.69,ET,1691617679
160,palmer,42.1584,-72.3287,301.04,53,75,5.14,US,1691617309
161,hauterive,46.0901,3.4459,292.57,76,0,1.17,FR,1691617597
162,morehead city,34.7229,-76.726,305.18,70,0,5.66,US,1691617505
163,nemuro,43.3236,145.575,292.05,100,100,5.6,JP,1691617404
164,zhezqazghan,47.7833,67.7667,294.24,64,81,1.14,KZ,1691617679
165,patacamaya,-17.2333,-67.9167,285.65,41,47,4.3,BO,1691617680
166,luderitz,-26.6481,15.1594,295.6,45,84,2.82,NA,1691617587
167,stanley,54.868,-1.6985,290.25,84,75,2.57,GB,1691617384
168,qaqortoq,60.7167,-46.0333,280.27,79,15,1.8,GL,1691617523
169,tanhacu,-14.0214,-41.2481,297.25,51,48,5.55,BR,1691617680
170,concordia,-31.393,-58.0209,289.48,80,52,2.33,AR,1691617680
171,colipapa,9.4726,122.5616,299.82,81,99,0.54,PH,1691617680
172,cristalina,-16.7686,-47.6136,293.71,42,1,2.39,BR,1691617680
173,ayr,55.4627,-4.6339,290.55,88,75,0.0,GB,1691617680
174,avarua,-21.2078,-159.775,298.18,69,75,7.72,CK,1691617488
175,pekan,3.4836,103.3996,297.21,90,71,2.18,MY,1691617681
176,asau,46.4333,26.4,286.66,63,81,1.25,RO,1691617681
177,antsiranana,-12.2787,49.2917,294.93,79,1,4.62,MG,1691617681
178,krasnokamensk,50.0979,118.0369,290.25,70,65,1.11,RU,1691617681
179,khandyga,62.6667,135.6,290.21,52,0,0.68,RU,1691617488
180,cabedelo,-6.9811,-34.8339,299.52,79,42,7.41,BR,1691617660
181,akureyri,65.6835,-18.0878,282.11,76,40,3.6,IS,1691617681
182,port hedland,-20.3167,118.5667,289.18,41,2,4.12,AU,1691617682
183,praia da vitoria,38.7333,-27.0667,299.29,78,20,3.67,PT,1691617537
184,thinadhoo,0.5333,72.9333,300.45,76,91,3.37,MV,1691617484
185,saipan,15.1355,145.701,301.54,100,100,4.12,MP,1691617546
186,hilo,19.7297,-155.09,302.19,78,100,2.68,US,1691617682
187,fada,9.5667,8.3,293.09,97,62,1.23,NG,1691617682
188,ebon,4.582,168.6964,300.43,77,99,1.91,MH,1691617682
189,ryotsu-minato,38.0833,138.4333,301.85,73,11,3.42,JP,1691617619
190,enewetak,11.3474,162.3373,301.7,76,83,6.76,MH,1691617395
191,utrik,11.2278,169.8474,301.42,72,86,5.05,MH,1691617433
192,beidao,34.5686,105.8933,294.93,93,71,1.52,CN,1691617683
193,lebu,-37.6167,-73.65,285.22,95,100,8.56,CL,1691617401
194,kondopoga,62.2057,34.2614,291.97,95,77,1.85,RU,1691617683
195,yakeshi,49.2833,120.7333,286.35,94,11,1.64,CN,1691617437
196,holualoa,19.6228,-155.9522,302.06,66,40,6.69,US,1691617648
197,manadhoo,5.7667,73.3833,300.97,79,100,6.52,MV,1691617683
198,ngara,-2.5122,30.6558,290.28,51,17,0.79,TZ,1691617684
199,vieux-habitants,16.0589,-61.7659,299.91,79,26,6.4,GP,1691617684
200,pasni,25.2631,63.471,300.18,82,98,5.66,PK,1691617684
201,porto novo,6.4965,2.6036,299.05,87,100,4.24,BJ,1691617515
202,bonthe,7.5264,-12.505,298.14,89,100,6.27,SL,1691617520
203,ancud,-41.8697,-73.8203,284.39,86,100,8.97,CL,1691617537
204,uliastay,47.7417,96.8444,286.89,85,100,0.64,MN,1691617410
205,kapiri mposhi,-13.9652,28.6809,287.82,38,0,4.42,ZM,1691617684
206,tumayr,25.7039,45.868,304.0,10,0,2.82,SA,1691617684
207,singkil,-7.9855,111.4161,292.92,93,70,1.95,ID,1691617685
208,brak,27.5496,14.2714,301.32,27,0,4.98,LY,1691617685
209,taoyuan city,24.9937,121.297,301.49,84,75,3.09,TW,1691617685
210,kailua-kona,19.6406,-155.9956,304.13,66,40,6.69,US,1691617474
211,kerikeri,-35.2268,173.9474,283.1,94,1,0.89,NZ,1691617445
212,prakhon chai,14.6059,103.1208,297.64,89,28,2.44,TH,1691617685
213,ixtapa,20.7,-105.2,306.05,75,46,1.34,MX,1691617641
214,selfoss,63.9331,-20.9971,284.84,78,99,2.41,IS,1691617387
215,aswan,24.0934,32.907,310.76,25,0,4.63,EG,1691617686
216,port blair,11.6667,92.75,300.57,82,100,6.35,IN,1691617439
217,hetauda,27.4284,85.0322,300.8,95,77,0.62,NP,1691617686
218,tindouf,27.6711,-8.1474,312.4,8,0,3.09,DZ,1691617686
219,port saint john's,-31.6229,29.5448,290.42,84,92,4.69,ZA,1691617657
220,shunyi,40.125,116.6453,299.12,94,100,2.0,CN,1691617686
221,isiro,2.7739,27.616,292.43,98,79,0.86,CD,1691617686
222,novodvinsk,64.4165,40.8122,288.83,89,4,2.11,RU,1691617686
223,puerto aysen,-45.4,-72.7,282.17,93,100,0.0,CL,1691617651
224,bereeda,11.8704,51.0579,304.23,53,98,4.62,SO,1691617687
225,zaozersk,69.4005,32.4476,291.38,77,0,1.52,RU,1691617687
226,victorica,-36.2151,-65.4359,288.59,35,100,7.94,AR,1691617687
227,chonchi,-42.6128,-73.8092,283.77,94,100,4.19,CL,1691617394
228,polyarnyy,69.1989,33.4478,291.55,74,0,2.81,RU,1691617430
229,el tigre,8.8875,-64.2454,302.68,62,100,1.41,VE,1691617687
230,santa ana,33.7456,-117.8678,306.82,66,75,4.63,US,1691617529
231,hermanus,-34.4187,19.2345,286.03,84,0,4.49,ZA,1691617543
232,santiago de cao,-7.9589,-79.2392,295.22,78,75,3.6,PE,1691617687
233,prince rupert,54.3161,-130.3201,288.2,91,100,5.66,CA,1691617326
234,tynda,55.1667,124.7167,288.62,81,6,0.8,RU,1691617688
235,zeya,53.75,127.2667,291.76,68,16,0.47,RU,1691617688
236,vuktyl,63.8567,57.3094,288.78,65,94,1.78,RU,1691617648
237,betioky,-23.7167,44.3833,291.42,84,0,3.8,MG,1691617688
238,pfronten,47.5833,10.5667,287.35,97,100,1.56,DE,1691617688
239,piton saint-leu,-21.2196,55.3151,292.19,73,0,3.6,RE,1691617688
240,mombetsu,44.3525,143.3525,291.53,99,100,2.23,JP,1691617688
241,dumai,1.6833,101.45,295.76,96,99,1.2,ID,1691617689
242,brisas de zicatela,15.8369,-97.0419,304.44,58,40,4.12,MX,1691617689
243,belmonte,-15.8631,-38.8828,295.37,76,0,3.39,BR,1691617533
244,sambava,-14.2667,50.1667,292.76,87,13,3.69,MG,1691617689
245,semey,50.4111,80.2275,294.3,32,22,3.83,KZ,1691617689
246,papao,-17.75,-149.55,300.97,73,100,7.37,PF,1691617528
247,mar del plata,-38.0023,-57.5575,286.53,91,75,4.63,AR,1691617435
248,port augusta,-32.5,137.7667,281.9,87,1,2.03,AU,1691617652
249,afaahiti,-17.75,-149.2833,300.08,71,94,6.57,PF,1691617498
250,kirakira,-10.4544,161.9205,298.31,88,100,4.19,SB,1691617689
251,lerwick,60.1545,-1.1494,284.15,71,95,9.26,GB,1691617501
252,nova sintra,14.8667,-24.7167,296.08,73,50,7.19,CV,1691617405
253,novyy urengoy,66.0833,76.6333,282.18,86,99,8.0,RU,1691617690
254,el quebrachal,-25.2833,-64.0667,294.42,40,34,2.78,AR,1691617690
255,itacare,-14.2775,-38.9967,295.07,77,0,3.45,BR,1691617690
256,qacha's nek,-30.1154,28.6894,278.56,72,0,0.83,LS,1691617690
257,changsha,28.2,112.9667,299.24,82,49,2.56,CN,1691617690
258,queenstown,-31.8976,26.8753,282.88,91,27,1.49,ZA,1691617515
259,marksville,31.128,-92.0662,312.07,27,8,7.77,US,1691617690
260,sola,-13.8833,167.55,296.07,85,100,10.21,VU,1691617691
261,conde,-7.2597,-34.9075,298.85,78,40,4.12,BR,1691617691
262,severnoye,56.3491,78.3619,287.51,97,99,3.83,RU,1691617691
263,mount pearl,47.5166,-52.7813,286.46,86,100,6.69,CA,1691617691
264,smithers,54.7804,-127.1743,291.33,68,75,2.06,CA,1691617691
265,puerto ayora,-0.7393,-90.3518,302.13,87,99,3.58,EC,1691617382
266,tongouson,5.0214,120.1328,300.92,74,83,1.68,PH,1691617692
267,labytnangi,66.6572,66.4183,282.53,80,7,3.03,RU,1691617692
268,fort st. john,56.2499,-120.8529,295.09,53,75,1.54,CA,1691617533
269,medina,24.4686,39.6142,311.39,16,0,4.12,SA,1691617443
270,satipo,-11.2522,-74.6386,300.98,61,86,0.51,PE,1691617692
271,korenevo,55.6719,38.0078,291.28,82,0,3.0,RU,1691617692
272,canar,-2.55,-78.9333,287.17,85,92,3.03,EC,1691617692
273,lubu,23.1742,112.2809,299.01,93,83,0.93,CN,1691617693
274,al jawf,29.5,38.75,303.18,23,0,1.58,SA,1691617381
275,klyuchi,52.2667,79.1667,292.33,47,71,2.99,RU,1691617419
276,faaa,-17.55,-149.6,301.13,61,20,3.09,PF,1691617693
277,okha,53.5739,142.9478,287.11,90,94,2.87,RU,1691617395
278,saint-philippe,-21.3585,55.7679,292.92,80,35,4.67,RE,1691617525
279,alofi,-19.0595,-169.9187,300.09,89,75,3.09,NU,1691617664
280,midvagur,62.0511,-7.1939,281.61,87,20,4.12,FO,1691617693
281,opuwo,-18.0607,13.84,290.57,38,12,2.38,NA,1691617693
282,platteville,42.7342,-90.4785,299.55,60,0,3.09,US,1691617693
283,quepos,9.4236,-84.1652,301.52,80,86,1.28,CR,1691617694
284,skeldon,5.8833,-57.1333,300.4,80,55,3.98,GY,1691617694
285,taza,34.25,-3.75,306.45,32,46,2.32,MA,1691617694
286,jamestown,42.097,-79.2353,299.83,55,20,5.66,US,1691617294
287,kapa'a,22.0752,-159.319,306.14,71,75,9.77,US,1691617694
288,saint-jean-de-monts,46.7833,-2.0667,294.79,71,1,4.17,FR,1691617694
289,kargasok,59.0556,80.8572,284.64,97,100,6.26,RU,1691617694
290,verkhniy tagil,57.3733,59.9556,288.81,77,100,1.28,RU,1691617694
291,calama,-22.4667,-68.9333,296.42,7,0,8.75,CL,1691617694
292,padang,-0.9492,100.3543,299.18,90,33,2.16,ID,1691617695
293,kingston,17.997,-76.7936,305.68,73,20,9.26,JM,1691617516
294,mazamari,-11.3258,-74.5308,300.57,66,84,0.25,PE,1691617695
295,dauphin,51.1494,-100.0502,294.23,46,20,6.69,CA,1691617695
296,the pas,53.8251,-101.2541,292.16,42,0,3.09,CA,1691617695
297,n'zeto,-7.2312,12.8666,294.48,87,9,2.92,AO,1691617695
298,oropesa del mar,40.1,0.15,301.5,73,65,3.41,ES,1691617696
299,kerema,-7.9631,145.7785,297.43,74,87,1.11,PG,1691617696
300,dubki,43.0225,46.8372,298.32,47,0,2.39,RU,1691617696
301,timiryazevskoye,56.49,84.8769,287.51,95,48,1.93,RU,1691617696
302,betare oya,5.6,14.0833,292.25,96,96,0.26,CM,1691617696
303,gandajika,-6.75,23.95,298.9,28,9,2.27,CD,1691617696
304,nouadhibou,20.931,-17.0347,295.14,88,20,8.75,MR,1691617696
305,santa terezinha,-29.9002,-50.0904,289.49,97,100,7.99,BR,1691617640
306,howrah,22.5892,88.3103,301.15,89,75,1.54,IN,1691617551
307,horta,38.5333,-28.6333,296.95,92,20,4.12,PT,1691617697
308,novyy urgal,51.0736,132.5642,290.77,72,79,0.83,RU,1691617697
309,vallenar,-28.5708,-70.7581,290.53,61,92,2.02,CL,1691617697
310,lompoc,34.6391,-120.4579,299.14,76,100,4.12,US,1691617643
311,bridgewater,44.3835,-64.5155,294.94,86,94,7.72,CA,1691617697
312,touros,-5.1989,-35.4608,298.04,80,56,7.59,BR,1691617668
313,antofagasta,-23.65,-70.4,290.75,72,36,1.07,CL,1691617575
314,ibaiti,-23.8486,-50.1878,288.02,92,61,1.99,BR,1691617698
315,nagykanizsa,46.4535,16.991,288.72,87,100,2.3,HU,1691617698
316,tolanaro,-25.0319,46.9987,292.35,91,7,2.45,MG,1691617448
317,santa ines,-3.6667,-45.38,300.01,69,96,2.07,BR,1691617649
318,mollendo,-17.0231,-72.0147,290.85,81,75,2.14,PE,1691617698
319,salinopolis,-0.6136,-47.3561,299.81,80,32,5.96,BR,1691617698
320,dila,6.4167,38.3167,289.61,93,97,1.01,ET,1691617698
321,northam,51.0333,-4.2167,290.71,95,84,2.21,GB,1691617698
322,malkerns,-26.5667,31.1833,286.09,93,47,0.33,SZ,1691617698
323,arris,35.2588,6.3471,296.34,40,0,3.6,DZ,1691617699
324,capao da canoa,-29.7456,-50.0097,289.38,98,100,5.3,BR,1691617699
325,bozeman,45.6796,-111.0386,301.86,33,0,9.26,US,1691617620
326,aykhal,66.0,111.5,289.21,57,92,2.59,RU,1691617499
327,trenggalek,-8.05,111.7167,293.87,94,89,1.25,ID,1691617699
328,quincy,42.2529,-71.0023,302.27,49,40,8.23,US,1691617431
329,chernyshevskiy,63.0128,112.4714,289.74,91,75,0.35,RU,1691617699
330,lydenburg,-25.0978,30.4597,283.91,77,59,2.86,ZA,1691617699
331,vilyuysk,63.7553,121.6247,288.56,56,1,3.52,RU,1691617431
332,manakara,-22.1333,48.0167,293.2,86,90,0.89,MG,1691617700
333,kone,-21.0595,164.8658,292.52,63,45,5.68,NC,1691617615
334,greenville,35.6127,-77.3663,305.24,49,40,2.57,US,1691617309
335,labuan,5.2767,115.2417,299.35,88,20,0.0,MY,1691617642
336,petropavlovsk-kamchatsky,53.0452,158.6483,288.48,67,40,1.0,RU,1691617528
337,poronaysk,49.2167,143.1167,288.33,89,100,1.66,RU,1691617700
338,happy valley-goose bay,53.3168,-60.3315,291.32,77,100,3.6,CA,1691617397
339,alta,69.9689,23.2717,292.74,73,0,0.51,NO,1691617577
340,parral,26.9333,-105.6667,306.71,17,39,6.16,MX,1691617700
341,medianeira,-25.2953,-54.0939,291.17,91,100,1.3,BR,1691617701
342,flying fish cove,-10.4217,105.6791,296.97,88,75,5.14,CX,1691617541
343,korla,41.7597,86.1469,300.51,26,0,2.32,CN,1691617452
344,san patricio,28.017,-97.5169,312.14,48,0,9.68,US,1691617409
345,nueva loja,0.0847,-76.8828,304.16,58,40,3.09,EC,1691617701
346,kodinsk,58.6881,99.1844,286.56,91,52,1.37,RU,1691617701
347,vorkuta,67.5,64.0,280.65,90,28,3.08,RU,1691617415
348,zhuanghe,39.7008,122.9911,295.97,85,0,3.18,CN,1691617702
349,santo antonio do ica,-3.1022,-67.9397,299.83,81,96,1.31,BR,1691617702
350,trincomalee,8.5711,81.2335,300.37,74,100,7.06,LK,1691617448
351,okhotsk,59.3833,143.3,289.27,63,10,0.55,RU,1691617413
352,bodo,67.28,14.405,292.17,57,0,4.63,NO,1691617407
353,marica,-22.9194,-42.8186,295.12,84,56,7.51,BR,1691617702
354,elk city,35.412,-99.4043,307.14,45,0,4.63,US,1691617702
355,mbaiki,3.8678,17.9892,294.73,97,100,1.01,CF,1691617703
356,freetown,8.484,-13.2299,298.99,89,75,5.14,SL,1691617703
357,camana,-16.6228,-72.7111,291.34,81,63,2.33,PE,1691617703
358,mao,39.8885,4.2658,297.46,83,0,2.57,ES,1691617703
359,yelizovo,53.1873,158.3805,289.23,72,40,1.79,RU,1691617418
360,marka,1.7159,44.7717,297.13,87,55,6.71,SO,1691617703
361,zwedru,6.0667,-8.1281,295.04,98,98,1.94,LR,1691617703
362,la trinite,14.7376,-60.9629,300.18,89,75,1.54,MQ,1691617704
363,luganville,-15.5333,167.1667,293.83,86,100,5.65,VU,1691617438
364,banda aceh,5.5577,95.3222,299.13,83,84,5.92,ID,1691617704
365,weno,7.4515,151.8468,300.12,100,75,2.06,FM,1691617456
366,fort bragg,35.139,-79.006,306.0,43,0,2.57,US,1691617578
367,ta`u,-14.2336,-169.5144,300.29,75,7,4.51,AS,1691617579
368,arkhangel'sk,64.5401,40.5433,288.89,88,4,2.2,RU,1691617704
369,hadithah,34.1397,42.3781,308.93,25,0,5.58,IQ,1691617704
370,broken hill,-31.95,141.4333,283.64,86,43,4.72,AU,1691617640
371,borgo valsugana,46.0514,11.4544,292.24,83,34,0.81,IT,1691617704
372,taroa,8.7058,171.2275,300.79,78,93,5.3,MH,1691617705
373,ishigaki,24.3448,124.1572,299.22,100,40,0.0,JP,1691617705
374,gharghoda,22.1667,83.35,297.24,80,9,1.29,IN,1691617705
375,chibuto,-24.6867,33.5306,288.07,88,0,2.03,MZ,1691617705
376,tshabong,-26.05,22.45,286.57,30,0,6.18,BW,1691617705
377,redwood falls,44.5394,-95.1169,302.12,39,0,4.63,US,1691617477
378,hithadhoo,-0.6,73.0833,300.28,75,72,2.12,MV,1691617375
379,kalmunai,7.4167,81.8167,299.48,81,100,2.64,LK,1691617382
380,magadan,59.5667,150.8,285.67,62,44,2.78,RU,1691617706
381,gerash,27.6652,54.1371,303.23,33,70,2.62,IR,1691617706
382,ratangarh,28.0833,74.6,301.54,65,100,7.5,IN,1691617706
383,fisterra,42.9049,-9.2629,294.12,80,100,6.04,ES,1691617546
384,floro,61.5996,5.0328,283.19,93,100,4.63,NO,1691617706
385,bandon,51.7469,-8.7425,289.92,98,35,3.17,IE,1691617706
386,dalai,45.5,124.3,290.53,93,1,3.36,CN,1691617706
387,katsuura,35.1333,140.3,300.02,80,82,5.16,JP,1691617707
388,bangangte,5.1409,10.5198,290.15,99,100,1.74,CM,1691617707
389,daru,-9.0763,143.2092,296.93,84,84,6.56,PG,1691617599
390,nema,57.5067,50.5011,290.03,78,9,1.66,RU,1691617651
391,shijiazhuang,38.0414,114.4786,298.07,84,16,0.9,CN,1691617474
392,port alfred,-33.5906,26.891,289.36,87,31,2.68,ZA,1691617548
393,"laikit, laikit ii (dimembe)",1.4792,124.9735,296.62,78,20,1.54,ID,1691617707
394,chinde,26.8418,88.0763,291.5,95,88,0.78,NP,1691617707
395,port macquarie,-31.4333,152.9167,281.42,68,45,2.95,AU,1691617708
396,portland,45.5234,-122.6762,301.99,51,75,3.09,US,1691617469
397,namibe,-15.1961,12.1522,290.5,88,66,3.36,AO,1691617536
398,salahonda,2.1019,-78.7217,300.25,81,27,6.03,CO,1691617708
399,tawau,4.2498,117.8871,298.22,88,94,0.89,MY,1691617708
400,bucerias,20.75,-105.3333,306.47,75,32,3.15,MX,1691617626
401,camocim,-2.9022,-40.8411,299.13,80,70,8.88,BR,1691617411
402,kruisfontein,-34.0033,24.7314,288.09,93,0,3.19,ZA,1691617708
403,kudat,6.8837,116.8477,298.31,83,20,1.54,MY,1691617708
404,tra vinh,9.9347,106.3453,298.19,91,35,2.2,VN,1691617708
405,divrigi,39.371,38.1137,300.04,29,0,1.18,TR,1691617709
406,kachia,9.8667,7.95,293.41,98,67,1.93,NG,1691617709
407,igbeti,8.75,4.1333,295.61,93,99,3.71,NG,1691617709
408,stanthorpe,-28.6667,151.95,281.72,94,54,1.25,AU,1691617709
409,nuku'alofa,-21.1333,-175.2,296.34,88,75,3.6,TO,1691617709
410,port sudan,19.6175,37.2164,308.31,27,8,3.13,SD,1691617709
411,douentza,14.9951,-2.9517,304.26,54,100,2.49,ML,1691617709
412,colonia,50.9333,6.95,289.51,78,20,2.06,DE,1691617261
413,progreso,21.2833,-89.6667,303.51,70,3,6.14,MX,1691617709
414,ust-tsilma,65.441,52.1498,288.08,87,1,1.11,RU,1691617710
415,ust'-ilimsk,58.0006,102.6619,289.36,89,100,0.81,RU,1691617676
416,dzhetygara,52.1908,61.2006,290.09,81,81,6.18,KZ,1691617710
417,carbonear,47.7332,-53.2148,287.18,87,100,5.28,CA,1691617619
418,sur,22.5667,59.5289,303.8,64,99,2.12,OM,1691617609
419,hadibu,12.65,54.0333,298.66,81,69,7.88,YE,1691617434
420,vila franca do campo,37.7167,-25.4333,297.38,95,100,4.46,PT,1691617589
421,san pedro,14.35,121.0167,301.72,87,40,3.09,PH,1691617710
422,persembe,41.0656,37.7714,295.83,89,99,2.64,TR,1691617710
423,tazacorte,28.629,-17.9293,297.69,92,0,7.72,ES,1691617443
424,robertsport,6.7533,-11.3686,298.74,84,100,7.76,LR,1691617711
425,as sulayyil,20.4607,45.5779,307.29,10,3,2.16,SA,1691617711
426,puyang,29.4603,119.8861,298.03,93,88,0.99,CN,1691617711
427,qamdo,31.1667,97.2333,280.53,74,100,0.92,CN,1691617648
428,dudhi,24.2167,83.25,298.11,84,100,2.12,IN,1691617711
429,choele choel,-39.2667,-65.6833,289.53,32,100,8.03,AR,1691617711
430,telimele,10.9167,-13.3333,295.21,99,100,0.2,GN,1691617711
431,kovdor,67.5662,30.4758,288.76,85,19,1.34,RU,1691617711
432,lhokseumawe,5.1801,97.1507,297.74,88,84,1.87,ID,1691617712
433,shakawe,-18.3667,21.85,290.96,19,62,5.28,BW,1691617712
434,nadvoitsy,63.8667,34.3167,291.03,82,65,3.07,RU,1691617712
435,hanceville,34.0607,-86.7675,304.91,72,99,2.1,US,1691617437
436,sparti,37.0733,22.4297,293.82,89,17,0.32,GR,1691617712
437,dolinsk,47.35,142.8,287.59,95,100,3.3,RU,1691617569
438,thunder bay,48.4001,-89.3168,297.14,40,40,6.17,CA,1691617466
439,sandnessjoen,66.0217,12.6316,292.21,45,20,4.63,NO,1691617376
440,ishim,56.1128,69.4902,289.58,83,98,2.82,RU,1691617712
441,box elder,41.5005,-112.8764,296.91,41,71,2.31,US,1691617713
442,mandal,25.45,74.5667,297.27,84,99,3.22,IN,1691617713
443,oranjemund,-28.55,16.4333,293.82,36,3,0.78,NA,1691617713
444,zuni pueblo,35.0725,-108.8506,293.65,50,86,6.51,US,1691617713
445,hobyo,5.3505,48.5268,297.81,82,86,10.36,SO,1691617586
446,envira,-7.3,-70.2167,302.27,52,96,0.84,BR,1691617713
447,gaiman,-43.2897,-65.4929,291.1,30,84,5.04,AR,1691617713
448,skelleftea,64.7507,20.9528,288.35,100,20,2.06,SE,1691617713
449,mikun',62.3547,50.0771,288.09,85,12,0.32,RU,1691617713
450,nadi,-17.8,177.4167,298.15,73,75,0.0,FJ,1691617447
451,cestos city,5.46,-9.5828,298.39,82,100,6.74,LR,1691617714
452,labrador city,52.9463,-66.9114,286.1,94,100,3.6,CA,1691617533
453,cooper's town,26.8667,-77.5167,303.15,74,98,2.59,BS,1691617714
454,la junta,37.985,-103.5438,302.07,36,20,2.57,US,1691617714
455,cavelossim,15.1726,73.9419,298.76,85,87,1.12,IN,1691617714
456,carupano,10.6678,-63.2585,301.11,77,100,2.49,VE,1691617714
457,gizo,-8.103,156.8419,299.59,81,99,10.07,SB,1691617714
458,mont-dore,-22.2833,166.5833,292.14,75,50,5.41,NC,1691617714
459,newman,37.3138,-121.0208,307.62,13,0,5.54,US,1691617451
460,trumann,35.6737,-90.5073,296.21,92,100,6.43,US,1691617715
461,porangatu,-13.4408,-49.1486,302.3,28,0,2.04,BR,1691617715
462,ginir,7.1333,40.7,288.14,75,51,4.64,ET,1691617549
463,kayangel,8.0823,134.7173,300.64,80,63,7.18,PW,1691617715
464,moussoro,13.6408,16.4901,297.82,82,100,5.63,TD,1691617715
465,maasim,5.8575,125.0061,299.28,83,98,2.56,PH,1691617715
466,yerofey pavlovich,53.9667,121.9667,288.79,77,12,0.75,RU,1691617715
467,vila velha,-20.3297,-40.2925,296.12,87,75,4.12,BR,1691617715
468,richards bay,-28.783,32.0377,292.19,72,100,1.58,ZA,1691617635
469,tucurui,-3.7661,-49.6725,301.16,63,54,1.25,BR,1691617683
470,hohhot,40.8106,111.6522,293.31,83,0,2.0,CN,1691617716
471,ishinomaki,38.4167,141.3,299.78,87,3,8.0,JP,1691617716
472,malango,-2.9627,119.9001,290.97,98,61,0.84,ID,1691617377
473,lesnoy,57.6198,63.0784,289.88,66,100,1.97,RU,1691617716
474,vernal,40.4555,-109.5287,301.77,27,0,3.09,US,1691617716
475,rio grande,-32.035,-52.0986,290.21,92,100,12.0,BR,1691617394
476,fitzgerald,31.7149,-83.2526,306.65,55,0,3.09,US,1691617716
477,deqen,29.9618,90.7188,284.26,84,67,1.29,CN,1691617717
478,faya-largeau,17.9257,19.1043,307.54,41,7,3.84,TD,1691617717
479,gobabis,-22.45,18.9667,286.66,26,48,7.08,NA,1691617717
480,leeton,-34.5667,146.4,282.53,88,77,4.89,AU,1691617717
481,nadym,65.5333,72.5167,281.34,79,0,9.59,RU,1691617717
482,casablanca,33.5928,-7.6192,299.27,81,9,1.05,MA,1691617717
483,shelton,41.3165,-73.0932,303.53,46,20,5.14,US,1691617518
484,hengchun,22.0042,120.7439,300.98,85,99,7.38,TW,1691617460
485,tralee,52.2704,-9.7026,288.98,95,0,3.71,IE,1691617560
486,swakopmund,-22.6833,14.5333,286.62,89,70,2.4,NA,1691617436
487,taitung city,22.7583,121.1444,300.62,80,100,1.51,TW,1691617718
488,vernon,50.2581,-119.2691,298.49,64,100,0.51,CA,1691617534
489,prado,-17.3411,-39.2208,294.93,77,3,3.14,BR,1691617448
490,nishinoomote,30.7333,131.0,300.88,85,100,7.81,JP,1691617718
491,svetlyy,54.675,20.1347,285.18,70,95,2.51,RU,1691617718
492,stulpicani,47.4667,25.7667,288.24,66,100,0.98,RO,1691617718
493,leava,-14.3,-178.1667,300.59,75,23,4.16,WF,1691617718
494,coria del rio,37.2877,-6.0541,306.22,55,0,3.13,ES,1691617719
495,turpan,42.9333,89.1667,305.29,28,27,0.87,CN,1691617443
496,cill airne,52.05,-9.5167,288.91,95,22,3.22,IE,1691617718
497,saint croix,17.7397,-64.7388,304.4,62,20,7.72,VI,1691617719
498,amursk,50.2261,136.8994,289.32,74,100,6.3,RU,1691617719
499,mawlaik,23.6333,94.4167,297.9,100,100,0.51,MM,1691617606
500,lensk,60.7253,114.9278,292.55,73,24,1.03,RU,1691617640
501,salaqi,40.5414,110.5108,297.25,54,68,3.07,CN,1691617719
502,amga,60.8953,131.9608,288.68,57,64,2.04,RU,1691617719
503,kalevala,65.2,31.1667,290.9,94,45,1.98,RU,1691617719
504,soderhamn,61.3037,17.0592,285.9,88,100,4.73,SE,1691617720
505,saudarkrokur,65.7461,-19.6394,279.37,88,69,4.9,IS,1691617594
506,kalavad,22.2167,70.3833,299.26,84,100,6.37,IN,1691617720
507,thurso,58.5927,-3.5259,286.29,84,96,0.55,GB,1691617720
508,muroto-misakicho,33.2833,134.15,300.51,91,86,10.41,JP,1691617720
509,pervomayskoye,43.919,46.7102,299.17,60,36,4.15,RU,1691617720
510,galesong,-5.3166,119.3661,294.16,77,88,3.32,ID,1691617720
511,andergrove,-21.0833,149.1833,290.73,76,21,4.94,AU,1691617720
512,hancheng,32.5186,112.3522,296.79,90,28,2.49,CN,1691617721
513,islamorada,24.9243,-80.6278,307.15,83,37,0.45,US,1691617623
514,san pedro pochutla,15.7333,-96.4667,305.99,57,99,2.79,MX,1691617606
515,rehoboth,-23.3167,17.0833,290.53,30,97,2.29,NA,1691617666
516,kavieng,-2.5744,150.7967,300.82,78,84,6.58,PG,1691617437
517,glendive,47.1053,-104.7125,305.94,29,0,5.66,US,1691617721
518,tacna,-18.0056,-70.2483,291.26,72,75,4.63,PE,1691617721
519,huarmey,-10.0681,-78.1522,294.9,71,36,4.86,PE,1691617497
520,xinyang,32.1228,114.0656,296.06,93,6,1.73,CN,1691617721
521,nguigmi,14.2495,13.1092,299.24,74,100,6.32,NE,1691617435
522,las heras,-46.5419,-68.9359,284.98,61,100,8.42,AR,1691617722
523,delijan,33.9905,50.6838,300.54,27,8,2.01,IR,1691617722
524,valparaiso,-33.0393,-71.6273,288.15,91,100,4.12,CL,1691617722
525,kasongo,-4.45,26.6667,298.35,36,4,0.96,CD,1691617722
526,kokopo,-4.352,152.2633,299.27,78,57,7.16,PG,1691617722
527,barra de santo antonio,-9.4047,-35.5072,297.75,78,77,4.93,BR,1691617722
528,ola,59.5833,151.2833,286.01,59,5,3.91,RU,1691617534
529,rudnichnyy,59.617,52.4703,286.86,75,56,1.52,RU,1691617722
530,bairnsdale,-37.8333,147.6167,284.56,72,100,3.91,AU,1691617650
531,al hufuf,25.3646,49.5653,307.34,20,0,2.57,SA,1691617723
532,pangody,65.85,74.4859,282.36,84,89,8.68,RU,1691617487
533,cururupu,-1.8283,-44.8683,297.0,94,64,1.47,BR,1691617527
534,ballina,-28.8667,153.5667,284.7,75,6,2.35,AU,1691617578
535,xiaoweizhai,26.1903,107.5125,295.01,97,41,0.73,CN,1691617446
536,carhaix-plouguer,48.2759,-3.5733,288.71,95,0,1.83,FR,1691617723
537,juegang,32.3174,121.1855,300.88,90,1,5.22,CN,1691617723
538,aral,40.5156,81.2636,299.51,29,0,3.92,CN,1691617592
539,uthai thani,15.3833,99.55,297.81,82,100,1.41,TH,1691617724
540,luau,-10.7073,22.2247,293.04,30,7,2.08,AO,1691617725
541,menongue,-14.6585,17.691,287.92,36,42,1.88,AO,1691617725
542,ardestan,33.3761,52.3694,300.97,25,0,0.84,IR,1691617725
543,aiquile,-18.2041,-65.1807,292.77,49,0,3.65,BO,1691617725
544,ulmeni,47.4667,23.3,288.24,66,99,0.84,RO,1691617725
545,brookings,44.3114,-96.7984,301.03,59,75,3.6,US,1691617597
546,pimentel,-6.8367,-79.9342,298.31,69,100,5.14,PE,1691617725
547,noosa heads,-26.3833,153.15,287.1,72,39,1.54,AU,1691617725
548,la ronge,55.1001,-105.2842,294.27,43,40,5.14,CA,1691617477
549,itoman,26.1247,127.6694,300.36,100,75,3.09,JP,1691617726
550,villanova,45.4889,11.9747,295.15,83,44,2.52,IT,1691617726
551,laguna,38.421,-121.4238,307.89,36,0,3.09,US,1691617726
552,margate,51.3813,1.3862,289.75,77,0,1.34,GB,1691617712
553,lodwar,3.1191,35.5973,303.24,38,42,5.17,KE,1691617718
554,arawa,-6.2132,155.5367,299.6,88,96,1.78,PG,1691617726
555,usinsk,65.9939,57.5281,284.03,76,59,3.53,RU,1691617726
556,motomachi,43.8228,144.1044,294.43,99,100,1.12,JP,1691617726
557,columbus,39.9612,-82.9988,299.82,73,75,5.66,US,1691617511
558,pingyin,36.2831,116.4453,295.32,80,0,2.61,CN,1691617727
559,nsanje,-16.92,35.262,290.6,90,52,1.6,MW,1691617727
560,castillos,-34.1667,-53.8333,287.86,87,58,5.95,UY,1691617727
561,bubaque,11.2833,-15.8333,300.34,83,80,3.45,GW,1691617543
562,childress,34.4264,-100.204,309.29,30,0,5.14,US,1691617721
563,choibalsan,48.0667,114.5,290.77,68,37,2.8,MN,1691617727
564,geidam,12.897,11.9304,296.59,84,100,3.66,NG,1691617727
565,richmond,37.5538,-77.4603,304.37,51,40,4.63,US,1691617576
566,la maddalena,41.2142,9.4083,294.24,82,12,6.72,IT,1691617727
567,cape canaveral,28.4058,-80.6048,308.2,76,0,5.14,US,1691617512
568,guerrero negro,27.9769,-114.0611,300.61,59,13,8.28,MX,1691617521
569,villa ojo de agua,-29.5,-63.6938,288.42,66,35,4.19,AR,1691617728
570,commentry,46.2921,2.7416,290.74,81,0,1.91,FR,1691617728
571,dawson creek,55.7666,-120.2362,294.95,49,40,3.6,CA,1691617669
572,piti village,13.4626,144.6933,299.64,94,75,2.06,GU,1691617476
573,weyburn,49.6668,-103.8511,289.27,72,100,5.66,CA,1691617728
574,kachkanar,58.7,59.4948,287.26,90,69,1.59,RU,1691617557
575,remire-montjoly,4.9167,-52.2667,302.17,74,20,5.14,GF,1691617519
576,tarquinia,42.2482,11.7553,294.15,76,59,1.58,IT,1691617729
577,yigo village,13.5361,144.8886,298.77,94,0,4.12,GU,1691617729
578,la'ie,21.6477,-157.9253,304.13,66,55,9.9,US,1691617729
579,kiunga,-6.1219,141.2906,295.77,85,98,1.78,PG,1691617729
580,alo,7.4178,6.7371,296.22,97,94,1.59,NG,1691617585
581,chatra,24.2167,84.8667,296.42,89,100,2.9,IN,1691617729
582,datong,40.0936,113.2914,294.96,79,63,1.87,CN,1691617492
583,houma,29.5958,-90.7195,308.71,61,75,4.02,US,1691617729
584,minas de marcona,-15.2119,-75.1103,289.38,68,5,5.63,PE,1691617433
